[
  {
    "location": "榮富公園",
    "district": "北投區",
    "address": "臺北市北投區榮華三路與磺溪旁",
    "longitude": 121.5247,
    "latitude": 25.11433,
    "link": "<a target=\"_blank\" href=\"https://play4u.gov.taipei/News_Content.aspx?n=4773608F226124D4&sms=7B56BA5392EB632C&s=E9C4254FCD906D5B\">連結</a>"
  },
  {
    "location": "和平青草園公園",
    "district": "萬華區",
    "address": "臺北市萬華區艋舺大道與西園路2段交叉口",
    "longitude": 121.49722,
    "latitude": 25.03267,
    "link": "<a target=\"_blank\" href=\"https://play4u.gov.taipei/News_Content.aspx?n=4773608F226124D4&sms=7B56BA5392EB632C&s=3AA293074F5855AD\">連結</a>"
  },
  {
    "location": "道南河濱公園",
    "district": "文山區",
    "address": "臺北市文山區景美恆光橋下游右側",
    "longitude": 121.56869,
    "latitude": 24.98167,
    "link": "<a target=\"_blank\" href=\"https://play4u.gov.taipei/News_Content.aspx?n=4773608F226124D4&sms=7B56BA5392EB632C&s=65FD5E845AA9F851\">連結</a>"
  },
  {
    "location": "山水綠生態公園",
    "district": "南港區",
    "address": "臺北市南港區南深路37號",
    "longitude": 121.62499,
    "latitude": 25.0293,
    "link": "<a target=\"_blank\" href=\"https://play4u.gov.taipei/News_Content.aspx?n=4773608F226124D4&sms=7B56BA5392EB632C&s=0155336C3506EE72\">連結</a>"
  },
  {
    "location": "建成公園",
    "district": "大同區",
    "address": "臺北市大同區承德路2段35號旁",
    "longitude": 121.51858,
    "latitude": 25.05417,
    "link": "<a target=\"_blank\" href=\"https://play4u.gov.taipei/News_Content.aspx?n=4773608F226124D4&sms=7B56BA5392EB632C&s=8F88D647FB637BD2\">連結</a>"
  },
  {
    "location": "潭美國小",
    "district": "內湖區",
    "address": "臺北市內湖區行善路179號",
    "longitude": 121.58107,
    "latitude": 25.05921,
    "link": "<a target=\"_blank\" href=\"https://play4u.gov.taipei/News_Content.aspx?n=4773608F226124D4&sms=7B56BA5392EB632C&s=0439AECF2E9C6F91\">連結</a>"
  },
  {
    "location": "古亭國小",
    "district": "大安區",
    "address": "臺北市大安區羅斯福路3段201號",
    "longitude": 121.52848,
    "latitude": 25.02067,
    "link": "<a target=\"_blank\" href=\"https://play4u.gov.taipei/News_Content.aspx?n=4773608F226124D4&sms=7B56BA5392EB632C&s=06703E1ECDFE5DBC\">連結</a>"
  },
  {
    "location": "文林國小",
    "district": "北投區",
    "address": "臺北市北投區文林北路155號",
    "longitude": 121.51475,
    "latitude": 25.10593,
    "link": "<a target=\"_blank\" href=\"https://play4u.gov.taipei/News_Content.aspx?n=4773608F226124D4&sms=7B56BA5392EB632C&s=0586ED4AC41C7965\">連結</a>"
  },
  {
    "location": "榮華公園",
    "district": "北投區",
    "address": "臺北市北投區明德路150巷",
    "longitude": 121.52212,
    "latitude": 25.11081,
    "link": "<a target=\"_blank\" href=\"https://play4u.gov.taipei/News_Content.aspx?n=4773608F226124D4&sms=7B56BA5392EB632C&s=C80DB97C32E565ED\">連結</a>"
  },
  {
    "location": "石潭公園",
    "district": "內湖區",
    "address": "臺北市內湖區成功路2段東側",
    "longitude": 121.59173,
    "latitude": 25.06351,
    "link": "<a target=\"_blank\" href=\"https://play4u.gov.taipei/News_Content.aspx?n=4773608F226124D4&sms=7B56BA5392EB632C&s=4AB1113FB31B7B4B\">連結</a>"
  },
  {
    "location": "萬芳4號公園",
    "district": "文山區",
    "address": "臺北市文山區萬和街1號對面",
    "longitude": 121.56839,
    "latitude": 25.00121,
    "link": "<a target=\"_blank\" href=\"https://play4u.gov.taipei/News_Content.aspx?n=4773608F226124D4&sms=7B56BA5392EB632C&s=26F469620122A80B\">連結</a>"
  },
  {
    "location": "樂活公園",
    "district": "內湖區",
    "address": "臺北市內湖區康樂街61巷15號旁",
    "longitude": 121.6186,
    "latitude": 25.06819,
    "link": "<a target=\"_blank\" href=\"https://play4u.gov.taipei/News_Content.aspx?n=4773608F226124D4&sms=7B56BA5392EB632C&s=C12602D96E42F3A7\">連結</a>"
  },
  {
    "location": "興隆公園",
    "district": "文山區",
    "address": "臺北市文山區興隆路2段154巷與仙岩路交口",
    "longitude": 121.55175,
    "latitude": 24.99998,
    "link": "<a target=\"_blank\" href=\"https://play4u.gov.taipei/News_Content.aspx?n=4773608F226124D4&sms=7B56BA5392EB632C&s=C7AFAD15F98A0885\">連結</a>"
  },
  {
    "location": "大港墘公園",
    "district": "內湖區",
    "address": "臺北市內湖區瑞光路393巷旁",
    "longitude": 121.57374,
    "latitude": 25.07799,
    "link": "<a target=\"_blank\" href=\"https://play4u.gov.taipei/News_Content.aspx?n=4773608F226124D4&sms=7B56BA5392EB632C&s=9B9B9AD2D0F5A685\">連結</a>"
  },
  {
    "location": "眷村文化公園",
    "district": "信義區",
    "address": "臺北市信義區松勤路與莊敬路交口(信義國小西側)",
    "longitude": 121.56262,
    "latitude": 25.03013,
    "link": "<a target=\"_blank\" href=\"https://play4u.gov.taipei/News_Content.aspx?n=4773608F226124D4&sms=7B56BA5392EB632C&s=BBDB7FF60AD80796\">連結</a>"
  },
  {
    "location": "景華公園",
    "district": "文山區",
    "address": "臺北市文山區景興路與景華街交口",
    "longitude": 121.54318,
    "latitude": 24.99574,
    "link": "<a target=\"_blank\" href=\"https://play4u.gov.taipei/News_Content.aspx?n=4773608F226124D4&sms=7B56BA5392EB632C&s=C3AA1725AEB87A9E\">連結</a>"
  },
  {
    "location": "明水公園",
    "district": "中山區",
    "address": "臺北市中山區北安路538巷1弄",
    "longitude": 121.54869,
    "latitude": 25.07912,
    "link": "<a target=\"_blank\" href=\"https://play4u.gov.taipei/News_Content.aspx?n=4773608F226124D4&sms=7B56BA5392EB632C&s=A355D48987C10160\">連結</a>"
  },
  {
    "location": "三民公園",
    "district": "松山區",
    "address": "臺北市松山區三民路、撫遠街298號",
    "longitude": 121.56744,
    "latitude": 25.06185,
    "link": "<a target=\"_blank\" href=\"https://play4u.gov.taipei/News_Content.aspx?n=4773608F226124D4&sms=7B56BA5392EB632C&s=E478DAADE7C6A69D\">連結</a>"
  },
  {
    "location": "聯成公園",
    "district": "南港區",
    "address": "臺北市南港區忠孝東路6段250巷1弄",
    "longitude": 121.58887,
    "latitude": 25.04829,
    "link": "<a target=\"_blank\" href=\"https://play4u.gov.taipei/News_Content.aspx?n=4773608F226124D4&sms=7B56BA5392EB632C&s=9D4297813AC67968\">連結</a>"
  },
  {
    "location": "福中公園",
    "district": "士林區",
    "address": "臺北市士林區福港街129巷及107巷交會處",
    "longitude": 121.51895,
    "latitude": 25.08827,
    "link": "<a target=\"_blank\" href=\"https://play4u.gov.taipei/News_Content.aspx?n=4773608F226124D4&sms=7B56BA5392EB632C&s=D704D250E15EE061\">連結</a>"
  },
  {
    "location": "玉成公園",
    "district": "南港區",
    "address": "臺北市南港區中坡南路55號",
    "longitude": 121.5857,
    "latitude": 25.04276,
    "link": "<a target=\"_blank\" href=\"https://play4u.gov.taipei/News_Content.aspx?n=4773608F226124D4&sms=7B56BA5392EB632C&s=08189D7578835058\">連結</a>"
  },
  {
    "location": "石牌公園",
    "district": "北投區",
    "address": "臺北市北投區石牌路1段39巷內",
    "longitude": 121.50957,
    "latitude": 25.11741,
    "link": "<a target=\"_blank\" href=\"https://play4u.gov.taipei/News_Content.aspx?n=4773608F226124D4&sms=7B56BA5392EB632C&s=1111974B0799B242\">連結</a>"
  },
  {
    "location": "立農公園",
    "district": "北投區",
    "address": "臺北市北投區承德路7段與吉利街口",
    "longitude": 121.50356,
    "latitude": 25.11907,
    "link": "<a target=\"_blank\" href=\"https://play4u.gov.taipei/News_Content.aspx?n=4773608F226124D4&sms=7B56BA5392EB632C&s=9F81C7C66021864D\">連結</a>"
  },
  {
    "location": "四分綠地",
    "district": "南港區",
    "address": "臺北市南港區研究院路2段182巷58弄旁",
    "longitude": 121.61463,
    "latitude": 25.03628,
    "link": "<a target=\"_blank\" href=\"https://play4u.gov.taipei/News_Content.aspx?n=4773608F226124D4&sms=7B56BA5392EB632C&s=7D3C780071537B7B\">連結</a>"
  },
  {
    "location": "磺港公園",
    "district": "北投區",
    "address": "臺北市北投區磺港路與大興街交叉口",
    "longitude": 121.50429,
    "latitude": 25.13086,
    "link": "<a target=\"_blank\" href=\"https://play4u.gov.taipei/News_Content.aspx?n=4773608F226124D4&sms=7B56BA5392EB632C&s=BEEB85A8A89621AE\">連結</a>"
  },
  {
    "location": "永盛公園",
    "district": "中山區",
    "address": "臺北市中山區中山北路2段93巷26、40號間",
    "longitude": 121.52484,
    "latitude": 25.05909,
    "link": "<a target=\"_blank\" href=\"https://play4u.gov.taipei/News_Content.aspx?n=4773608F226124D4&sms=7B56BA5392EB632C&s=B43F343E4D8BE8BB\">連結</a>"
  },
  {
    "location": "大佳河濱公園",
    "district": "中山區",
    "address": "臺北市中山區濱江街",
    "longitude": 121.52962,
    "latitude": 25.07518,
    "link": "<a target=\"_blank\" href=\"https://play4u.gov.taipei/News_Content.aspx?n=4773608F226124D4&sms=7B56BA5392EB632C&s=B496F4561F06B716\">連結</a>"
  },
  {
    "location": "中安公園",
    "district": "中山區",
    "address": "臺北市中山區中山北路2段65巷2弄內",
    "longitude": 121.52404,
    "latitude": 25.05655,
    "link": "<a target=\"_blank\" href=\"https://play4u.gov.taipei/News_Content.aspx?n=4773608F226124D4&sms=7B56BA5392EB632C&s=5DEDDC50F55CE2D5\">連結</a>"
  },
  {
    "location": "樹德公園",
    "district": "大同區",
    "address": "臺北市大同區大龍街129號",
    "longitude": 121.51629,
    "latitude": 25.06693,
    "link": "<a target=\"_blank\" href=\"https://play4u.gov.taipei/News_Content.aspx?n=4773608F226124D4&sms=7B56BA5392EB632C&s=B0B6AE382B64FDD4\">連結</a>"
  },
  {
    "location": "景化公園",
    "district": "大同區",
    "address": "臺北市大同區伊寧街9巷(景化街巷弄中)",
    "longitude": 121.51276,
    "latitude": 25.06541,
    "link": "<a target=\"_blank\" href=\"https://play4u.gov.taipei/News_Content.aspx?n=4773608F226124D4&sms=7B56BA5392EB632C&s=CC953699A52434B0\">連結</a>"
  },
  {
    "location": "朝陽公園",
    "district": "大同區",
    "address": "臺北市大同區重慶北路2段64巷口",
    "longitude": 121.51315,
    "latitude": 25.05599,
    "link": "<a target=\"_blank\" href=\"https://play4u.gov.taipei/News_Content.aspx?n=4773608F226124D4&sms=7B56BA5392EB632C&s=68557202F5C8DA72\">連結</a>"
  },
  {
    "location": "大安國小",
    "district": "大安區",
    "address": "臺北市大安區臥龍街129號",
    "longitude": 121.54966,
    "latitude": 25.01955,
    "link": "<a target=\"_blank\" href=\"https://play4u.gov.taipei/News_Content.aspx?n=4773608F226124D4&sms=7B56BA5392EB632C&s=CE6A193EEB59C3F8\">連結</a>"
  },
  {
    "location": "和平實驗小學",
    "district": "大安區",
    "address": "臺北市大安區敦南街76巷28號",
    "longitude": 121.54671,
    "latitude": 25.02077,
    "link": "<a target=\"_blank\" href=\"https://play4u.gov.taipei/News_Content.aspx?n=4773608F226124D4&sms=7B56BA5392EB632C&s=832F55F5F0D4785D\">連結</a>"
  },
  {
    "location": "建安國小",
    "district": "大安區",
    "address": "臺北市大安區大安路2段99號",
    "longitude": 121.54615,
    "latitude": 25.02941,
    "link": "<a target=\"_blank\" href=\"https://play4u.gov.taipei/News_Content.aspx?n=4773608F226124D4&sms=7B56BA5392EB632C&s=744378149154FBCA\">連結</a>"
  },
  {
    "location": "花博公園美術園區",
    "district": "中山區",
    "address": "臺北市中山區中山北路以東民族東路以北(原民族公園)",
    "longitude": 121.52375,
    "latitude": 25.06884,
    "link": "<a target=\"_blank\" href=\"https://play4u.gov.taipei/News_Content.aspx?n=4773608F226124D4&sms=7B56BA5392EB632C&s=D8DDB67A9F2724C3\">連結</a>"
  },
  {
    "location": "象山公園",
    "district": "信義區",
    "address": "臺北市信義區信義路5段150巷旁",
    "longitude": 121.57002,
    "latitude": 25.03017,
    "link": "<a target=\"_blank\" href=\"https://play4u.gov.taipei/News_Content.aspx?n=4773608F226124D4&sms=7B56BA5392EB632C&s=0150CC245600BC72\">連結</a>"
  },
  {
    "location": "士林4號廣場",
    "district": "士林區",
    "address": "臺北市士林區福林路與雨農路交叉口",
    "longitude": 121.53221,
    "latitude": 25.09612,
    "link": "<a target=\"_blank\" href=\"https://play4u.gov.taipei/News_Content.aspx?n=4773608F226124D4&sms=7B56BA5392EB632C&s=B461E93E6EF34B85\">連結</a>"
  },
  {
    "location": "榮星公園",
    "district": "中山區",
    "address": "臺北市中山區民權東路與建國北路交叉口",
    "longitude": 121.53847,
    "latitude": 25.06382,
    "link": "<a target=\"_blank\" href=\"https://play4u.gov.taipei/News_Content.aspx?n=4773608F226124D4&sms=7B56BA5392EB632C&s=32ED2A1E79875866\">連結</a>"
  },
  {
    "location": "碧湖公園",
    "district": "內湖區",
    "address": "臺北市內湖區內湖路2段175號(國立臺灣戲曲學院旁)",
    "longitude": 121.58574,
    "latitude": 25.08221,
    "link": "<a target=\"_blank\" href=\"https://play4u.gov.taipei/News_Content.aspx?n=4773608F226124D4&sms=7B56BA5392EB632C&s=57680BDD3733F4A4\">連結</a>"
  },
  {
    "location": "中研公園",
    "district": "南港區",
    "address": "臺北市南港區研究路2段12巷58弄",
    "longitude": 121.61314,
    "latitude": 25.04676,
    "link": "<a target=\"_blank\" href=\"https://play4u.gov.taipei/News_Content.aspx?n=4773608F226124D4&sms=7B56BA5392EB632C&s=5C910EE692CEADF9\">連結</a>"
  },
  {
    "location": "兒童新樂園(機械式)",
    "district": "士林區",
    "address": "臺北市士林區承德路5段55號",
    "longitude": 121.51473,
    "latitude": 25.09715,
    "link": "<a target=\"_blank\" href=\"https://play4u.gov.taipei/News_Content.aspx?n=4773608F226124D4&sms=7B56BA5392EB632C&s=D4D92846026D0EDB\">連結</a>"
  },
  {
    "location": "兒童新樂園(非機械式)",
    "district": "士林區",
    "address": "臺北市士林區承德路5段55號",
    "longitude": 121.51473,
    "latitude": 25.09715,
    "link": "<a target=\"_blank\" href=\"https://play4u.gov.taipei/News_Content.aspx?n=4773608F226124D4&sms=7B56BA5392EB632C&s=8D88B656BFDEF08A\">連結</a>"
  },
  {
    "location": "瑠公圳公園",
    "district": "大安區",
    "address": "臺北市大安區安東街40巷",
    "longitude": 121.54047,
    "latitude": 25.04397,
    "link": "<a target=\"_blank\" href=\"https://play4u.gov.taipei/News_Content.aspx?n=4773608F226124D4&sms=7B56BA5392EB632C&s=F3085C5DE6371195\">連結</a>"
  },
  {
    "location": "松德公園",
    "district": "信義區",
    "address": "臺北市信義區松德路180巷8之1號對面",
    "longitude": 121.57319,
    "latitude": 25.03553,
    "link": "<a target=\"_blank\" href=\"https://play4u.gov.taipei/News_Content.aspx?n=4773608F226124D4&sms=7B56BA5392EB632C&s=199C122D674C9C5D\">連結</a>"
  },
  {
    "location": "東陽公園",
    "district": "南港區",
    "address": "臺北市南港區重陽路187巷",
    "longitude": 121.59844,
    "latitude": 25.05733,
    "link": "<a target=\"_blank\" href=\"https://play4u.gov.taipei/News_Content.aspx?n=4773608F226124D4&sms=7B56BA5392EB632C&s=9BD85DD7C90D6C01\">連結</a>"
  },
  {
    "location": "三重世貿公園",
    "district": "南港區",
    "address": "臺北市南港區經貿二路106巷",
    "longitude": 121.61523,
    "latitude": 25.05796,
    "link": "<a target=\"_blank\" href=\"https://play4u.gov.taipei/News_Content.aspx?n=4773608F226124D4&sms=7B56BA5392EB632C&s=E79928B9C5D2427E\">連結</a>"
  },
  {
    "location": "日新國小",
    "district": "大同區",
    "address": "臺北市大同區太原路151號",
    "longitude": 121.51667,
    "latitude": 25.0544,
    "link": "<a target=\"_blank\" href=\"https://play4u.gov.taipei/News_Content.aspx?n=4773608F226124D4&sms=7B56BA5392EB632C&s=4372EA9F79EADEC0\">連結</a>"
  },
  {
    "location": "天母夢想樂園",
    "district": "士林區",
    "address": "臺北市士林區忠誠路2段",
    "longitude": 121.53342,
    "latitude": 25.11387,
    "link": "<a target=\"_blank\" href=\"https://play4u.gov.taipei/News_Content.aspx?n=4773608F226124D4&sms=7B56BA5392EB632C&s=CE9DDFC3318FCC70\">連結</a>"
  },
  {
    "location": "大佳河濱公園(第3期)",
    "district": "中山區",
    "address": "臺北市中山區濱江街",
    "longitude": 121.52962,
    "latitude": 25.07518,
    "link": "<a target=\"_blank\" href=\"https://play4u.gov.taipei/News_Content.aspx?n=4773608F226124D4&sms=7B56BA5392EB632C&s=C2D978FBEA86FA11\">連結</a>"
  },
  {
    "location": "萬慶公園",
    "district": "文山區",
    "address": "臺北市文山區育英街45巷旁",
    "longitude": 121.53773,
    "latitude": 24.9937,
    "link": "<a target=\"_blank\" href=\"https://play4u.gov.taipei/News_Content.aspx?n=4773608F226124D4&sms=7B56BA5392EB632C&s=8BEBE589822A3013\">連結</a>"
  },
  {
    "location": "新新公園",
    "district": "南港區",
    "address": "臺北市南港路3段47巷26號",
    "longitude": 121.59052,
    "latitude": 25.05173,
    "link": "<a target=\"_blank\" href=\"https://play4u.gov.taipei/News_Content.aspx?n=4773608F226124D4&sms=7B56BA5392EB632C&s=E5D8BCD9895C9B61\">連結</a>"
  },
  {
    "location": "興隆國小",
    "district": "文山區",
    "address": "臺北市文山區福興路2號",
    "longitude": 121.55193,
    "latitude": 25.0024,
    "link": "<a target=\"_blank\" href=\"https://play4u.gov.taipei/News_Content.aspx?n=4773608F226124D4&sms=7B56BA5392EB632C&s=954CDBCCFE03E44F\">連結</a>"
  },
  {
    "location": "華中河濱公園",
    "district": "萬華區",
    "address": "臺北市萬華區環河南路3段與武成街63巷交叉口附近",
    "longitude": 121.49372,
    "latitude": 25.01852,
    "link": "<a target=\"_blank\" href=\"https://play4u.gov.taipei/News_Content.aspx?n=4773608F226124D4&sms=7B56BA5392EB632C&s=5073BE013EDE59FD\">連結</a>"
  },
  {
    "location": "南港公園",
    "district": "南港區",
    "address": "臺北市南港區東新街170之1號",
    "longitude": 121.59059,
    "latitude": 25.04241,
    "link": "<a target=\"_blank\" href=\"https://play4u.gov.taipei/News_Content.aspx?n=4773608F226124D4&sms=7B56BA5392EB632C&s=A0AC2F7E195386D2\">連結</a>"
  },
  {
    "location": "前港公園",
    "district": "士林區",
    "address": "臺北市士林區前港街134巷旁",
    "longitude": 121.52094,
    "latitude": 25.08651,
    "link": "<a target=\"_blank\" href=\"https://play4u.gov.taipei/News_Content.aspx?n=4773608F226124D4&sms=7B56BA5392EB632C&s=8E87AD00FBD0CDA4\">連結</a>"
  },
  {
    "location": "中央藝文公園",
    "district": "中正區",
    "address": "臺北市中正區北平東路30號前",
    "longitude": 121.52791,
    "latitude": 25.04607,
    "link": "<a target=\"_blank\" href=\"https://play4u.gov.taipei/News_Content.aspx?n=4773608F226124D4&sms=7B56BA5392EB632C&s=6A692C83A2717DA3\">連結</a>"
  },
  {
    "location": "大佳河濱公園(第2期)",
    "district": "中山區",
    "address": "臺北市中山區濱江街",
    "longitude": 121.52962,
    "latitude": 25.07518,
    "link": "<a target=\"_blank\" href=\"https://play4u.gov.taipei/News_Content.aspx?n=4773608F226124D4&sms=7B56BA5392EB632C&s=E36701083960C759\">連結</a>"
  },
  {
    "location": "臺北市立臺北特殊教育學校",
    "district": "士林區",
    "address": "臺北市士林區忠誠路2段207巷3號",
    "longitude": 121.5361,
    "latitude": 25.11658,
    "link": "<a target=\"_blank\" href=\"https://play4u.gov.taipei/News_Content.aspx?n=4773608F226124D4&sms=7B56BA5392EB632C&s=9AB18CB6CB4EBEA5\">連結</a>"
  },
  {
    "location": "芝山國小",
    "district": "士林區",
    "address": "臺北市士林區德行東路285號",
    "longitude": 121.53648,
    "latitude": 25.1106,
    "link": "<a target=\"_blank\" href=\"https://play4u.gov.taipei/News_Content.aspx?n=4773608F226124D4&sms=7B56BA5392EB632C&s=A571C856159C2696\">連結</a>"
  }
]